{
"type": "FeatureCollection",
"name": "AAMC_locations",
"crs": { "type": "name", "properties": { "name": "urn:ogc:def:crs:OGC:1.3:CRS84" } },
"features": [
{ "type": "Feature", "properties": { "Name": "AAMC Chhaujpur", "District_Name": "Shahdara", "Address_of_Mohalla_Clinic": "House No.58, North Chhajupur, Street No.3, Shahdara" }, "geometry": { "type": "Point", "coordinates": [ 77.286738, 28.690027, 0.0 ] } },
{ "type": "Feature", "properties": { "Name": "AAMC Dilshad Colony", "District_Name": "Shahdara", "Address_of_Mohalla_Clinic": "A-170 Dilshad Colony\/Jain Colony" }, "geometry": { "type": "Point", "coordinates": [ 77.3274, 28.6861, 0.0 ] } },
{ "type": "Feature", "properties": { "Name": "AAMC DTC", "District_Name": "Shahdara", "Address_of_Mohalla_Clinic": "Near bus stop of Delhi transport Corporation Seemapauri Delhi( AC-63,Seemapuri)" }, "geometry": { "type": "Point", "coordinates": [ 77.330253, 28.685567, 0.0 ] } },
{ "type": "Feature", "properties": { "Name": "AAMC East Azad Nagar", "District_Name": "Shahdara", "Address_of_Mohalla_Clinic": "B2\/4A Street 4 East Azad Nagar, Delhi-51" }, "geometry": { "type": "Point", "coordinates": [ 77.27965, 28.663616, 0.0 ] } },
{ "type": "Feature", "properties": { "Name": "AAMC EDMC", "District_Name": "Shahdara", "Address_of_Mohalla_Clinic": "on Road no. 66, along drain no.1 in front of EDMC (AC-67 Babarpur)" }, "geometry": { "type": "Point", "coordinates": [ 77.281665, 28.696322, 0.0 ] } },
{ "type": "Feature", "properties": { "Name": "AAMC Janta Colony", "District_Name": "Shahdara", "Address_of_Mohalla_Clinic": "Road no. 65 in front of Janta colony adoining to proposed site policlinc(AC-67 Babarpur)" }, "geometry": { "type": "Point", "coordinates": [ 77.275894, 28.683589, 0.0 ] } },
{ "type": "Feature", "properties": { "Name": "AAMC Jwala Nagar", "District_Name": "Shahdara", "Address_of_Mohalla_Clinic": "312, Gali No-6, Gautam Gali, Jwala Nagar" }, "geometry": { "type": "Point", "coordinates": [ 77.299836, 28.670389, 0.0 ] } },
{ "type": "Feature", "properties": { "Name": "AAMC Kailash nagar", "District_Name": "Shahdara", "Address_of_Mohalla_Clinic": null }, "geometry": { "type": "Point", "coordinates": [ 77.256404, 28.66226, 0.0 ] } },
{ "type": "Feature", "properties": { "Name": "AAMC Mansrovar Park", "District_Name": "Shahdara", "Address_of_Mohalla_Clinic": "Below GT road flyover Near Mansrover Park Metro station, infornt of friends colony Jawala Ngar.(AC-62 Shahdara)" }, "geometry": { "type": "Point", "coordinates": [ 77.302809, 28.676077, 0.0 ] } },
{ "type": "Feature", "properties": { "Name": "AAMC Nathu Colony", "District_Name": "Shahdara", "Address_of_Mohalla_Clinic": "house No D-233, School Block Nathu Colony, Delhi-93" }, "geometry": { "type": "Point", "coordinates": [ 77.302802, 28.691225, 0.0 ] } },
{ "type": "Feature", "properties": { "Name": "AAMC Old Seemapuri", "District_Name": "Shahdara", "Address_of_Mohalla_Clinic": "F block,Near Jama masjid,behind MCD Primary School,Old Seema puri (AC-62 Shahdara)" }, "geometry": { "type": "Point", "coordinates": [ 77.32952, 28.681276, 0.0 ] } },
{ "type": "Feature", "properties": { "Name": "AAMC Panchsheel Garden Navin Shahdara", "District_Name": "Shahdara", "Address_of_Mohalla_Clinic": "B-10(1\/11805), PlotNo. A-28, Panchsheel Garden, Naveen Shahdara, Delhi32" }, "geometry": { "type": "Point", "coordinates": [ 77.282171, 28.677177, 0.0 ] } },
{ "type": "Feature", "properties": { "Name": "AAMC Rohtas Nagar", "District_Name": "Shahdara", "Address_of_Mohalla_Clinic": "1\/1616-17 Gali No. 7 Rohtas Nagar" }, "geometry": { "type": "Point", "coordinates": [ 77.279061, 28.677494, 0.0 ] } },
{ "type": "Feature", "properties": { "Name": "AAMC Sattar Gali Maujpur", "District_Name": "Shahdara", "Address_of_Mohalla_Clinic": "D-44, Gali No. 9, Sattar Gali, Main Mohan puri, Maujpuri, Delhi 53" }, "geometry": { "type": "Point", "coordinates": [ 77.3105, 28.68435, 0.0 ] } },
{ "type": "Feature", "properties": { "Name": "AAMC Satyam Enclave", "District_Name": "Shahdara", "Address_of_Mohalla_Clinic": "Flat No 193 A, Satyam Enclave, Delhi-95" }, "geometry": { "type": "Point", "coordinates": [ 77.303675, 28.668266, 0.0 ] } },
{ "type": "Feature", "properties": { "Name": "AAMC Sundernagri", "District_Name": "Shahdara", "Address_of_Mohalla_Clinic": "At Gagan Cinema Xing Towards Sunder Nagri Road.( AC- 63,Seemapuri)" }, "geometry": { "type": "Point", "coordinates": [ 77.315032, 28.696264, 0.0 ] } },
{ "type": "Feature", "properties": { "Name": "AAMC Tahirpur", "District_Name": "Shahdara", "Address_of_Mohalla_Clinic": "AT Road No. 69, Gagan crossing to Tahirpur, Near Anand Gram Ashram Bus stand.( AC-63,Seemapuri)" }, "geometry": { "type": "Point", "coordinates": [ 77.319193, 28.688398, 0.0 ] } },
{ "type": "Feature", "properties": { "Name": "AAMC Yamuna Vihar", "District_Name": "Shahdara", "Address_of_Mohalla_Clinic": "C-11\/96, Yamuna Vihar, Delhi-110053" }, "geometry": { "type": "Point", "coordinates": [ 77.270508, 28.699869, 0.0 ] } },
{ "type": "Feature", "properties": { "Name": "AAMC Balbir nagar, rathi mill", "District_Name": "Shahdara", "Address_of_Mohalla_Clinic": "Balbir Nagar, Babarpur (AC-67)" }, "geometry": { "type": "Point", "coordinates": [ 77.2936185, 28.6825695, 0.0 ] } },
{ "type": "Feature", "properties": { "Name": "AAMC railway line ashok nagar", "District_Name": "Shahdara", "Address_of_Mohalla_Clinic": "Below ROB Wazirabad Road Ashok Nagar Side (AC-66 Ghonda)" }, "geometry": { "type": "Point", "coordinates": [ 77.301934, 28.699396, 0.0 ] } },
{ "type": "Feature", "properties": { "Name": "AAMC Shaeed Shukhdev Business college", "District_Name": "Shahdara", "Address_of_Mohalla_Clinic": "R. No. 58 (Maharaja Surajmal Marg) Along wall of shaeed Shukhdev Business Collage, Near satyam Enclave (AC-62 Shahadara)" }, "geometry": { "type": "Point", "coordinates": [ 77.303629, 28.669565, 0.0 ] } },
{ "type": "Feature", "properties": { "Name": "AAMC A-3 nandnagri", "District_Name": "Shahdara", "Address_of_Mohalla_Clinic": "A-3 Nand Nagri, Near Dev Medical, Ac-63 Seema puri" }, "geometry": { "type": "Point", "coordinates": [ 77.30394, 28.696409, 0.0 ] } },
{ "type": "Feature", "properties": { "Name": "AAMC DTC Shahdara Flyover", "District_Name": "Shahdara", "Address_of_Mohalla_Clinic": "Shahdara Flyover Near DTC Depot(AC-64) Rohtas Nagar" }, "geometry": { "type": "Point", "coordinates": [ 77.28, 28.6742, 0.0 ] } },
{ "type": "Feature", "properties": { "Name": "AAMC Siddharth International School", "District_Name": "Shahdara", "Address_of_Mohalla_Clinic": "AAMC Opposite Siddharth International School on Wazirabad Road (AC-64) Rohtas Nagar" }, "geometry": { "type": "Point", "coordinates": [ 77.29365, 28.70047, 0.0 ] } },
{ "type": "Feature", "properties": { "Name": "AAMC 25 Block Trilokpuri", "District_Name": "East", "Address_of_Mohalla_Clinic": "Trilokpuri" }, "geometry": { "type": "Point", "coordinates": [ 77.30467, 28.61035, 0.0 ] } },
{ "type": "Feature", "properties": { "Name": "AAMC 12 BLOCK TRILOKPURI", "District_Name": "East", "Address_of_Mohalla_Clinic": "Dallupura" }, "geometry": { "type": "Point", "coordinates": [ 77.310028, 28.611199, 0.0 ] } },
{ "type": "Feature", "properties": { "Name": "AAMC Dallupura", "District_Name": "East", "Address_of_Mohalla_Clinic": "Dallupura" }, "geometry": { "type": "Point", "coordinates": [ 77.32013, 28.60669, 0.0 ] } },
{ "type": "Feature", "properties": { "Name": "AAMC GANESH NAGAR", "District_Name": "East", "Address_of_Mohalla_Clinic": "Old Anarkali" }, "geometry": { "type": "Point", "coordinates": [ 77.28371, 28.622, 0.0 ] } },
{ "type": "Feature", "properties": { "Name": "AAMC Gharoli Dairy Farm", "District_Name": "East", "Address_of_Mohalla_Clinic": "Gharoli Dairy" }, "geometry": { "type": "Point", "coordinates": [ 77.331946, 28.610361, 0.0 ] } },
{ "type": "Feature", "properties": { "Name": "AAMC Kalyanpuri", "District_Name": "East", "Address_of_Mohalla_Clinic": "Kalyanpuri" }, "geometry": { "type": "Point", "coordinates": [ 77.311556, 28.612955, 0.0 ] } },
{ "type": "Feature", "properties": { "Name": "AAMC Khichripur", "District_Name": "East", "Address_of_Mohalla_Clinic": "Khichripur" }, "geometry": { "type": "Point", "coordinates": [ 77.318738, 28.619594, 0.0 ] } },
{ "type": "Feature", "properties": { "Name": "AAMC New Kondli", "District_Name": "East", "Address_of_Mohalla_Clinic": "Kondli" }, "geometry": { "type": "Point", "coordinates": [ 77.332265, 28.604683, 0.0 ] } },
{ "type": "Feature", "properties": { "Name": "AAMC Old Anarkali", "District_Name": "East", "Address_of_Mohalla_Clinic": "Old Anarkali" }, "geometry": { "type": "Point", "coordinates": [ 77.28713, 28.65518, 0.0 ] } },
{ "type": "Feature", "properties": { "Name": "AAMC Pratap Chauk", "District_Name": "East", "Address_of_Mohalla_Clinic": "Shamas Pur" }, "geometry": { "type": "Point", "coordinates": [ 77.315211, 28.602991, 0.0 ] } },
{ "type": "Feature", "properties": { "Name": "AAMC Shakarpur", "District_Name": "East", "Address_of_Mohalla_Clinic": "Shakarpur" }, "geometry": { "type": "Point", "coordinates": [ 77.277005, 28.629098, 0.0 ] } },
{ "type": "Feature", "properties": { "Name": "AAMC Shastri Mohalla", "District_Name": "East", "Address_of_Mohalla_Clinic": "Shastri Mohalla" }, "geometry": { "type": "Point", "coordinates": [ 77.290733, 28.613335, 0.0 ] } },
{ "type": "Feature", "properties": { "Name": "AAMC Vasundhara Enclave", "District_Name": "East", "Address_of_Mohalla_Clinic": "Vasundhara Enclave" }, "geometry": { "type": "Point", "coordinates": [ 77.320366, 28.604171, 0.0 ] } },
{ "type": "Feature", "properties": { "Name": "AAMC West Vinod Nagar", "District_Name": "East", "Address_of_Mohalla_Clinic": "West Vinod Nagar" }, "geometry": { "type": "Point", "coordinates": [ 77.30068, 28.62625, 0.0 ] } },
{ "type": "Feature", "properties": { "Name": "AAMC Geeta Colony", "District_Name": "East", "Address_of_Mohalla_Clinic": "Opposite Shamshan Ghat Geeta Colony" }, "geometry": { "type": "Point", "coordinates": [ 77.264827, 28.654589, 0.0 ] } },
{ "type": "Feature", "properties": { "Name": "AAMC TALAB CHOWK", "District_Name": "East", "Address_of_Mohalla_Clinic": "Dallupura" }, "geometry": { "type": "Point", "coordinates": [ 77.294926, 28.63057, 0.0 ] } },
{ "type": "Feature", "properties": { "Name": "AAMCÂ Gopal Nagar", "District_Name": "South West District", "Address_of_Mohalla_Clinic": "RZ-38, A-block, Main Gopal Nagar, Najafgarh New Delhi." }, "geometry": { "type": "Point", "coordinates": [ 76.975866, 28.612282, 0.0 ] } },
{ "type": "Feature", "properties": { "Name": "AAMC Raj Nagar-II", "District_Name": "South West District", "Address_of_Mohalla_Clinic": "RZF-1120, Lohia Marg, Pandit Chowk,  Raj Nagar-II, Palam Colony" }, "geometry": { "type": "Point", "coordinates": [ 77.08276, 28.578258, 0.0 ] } },
{ "type": "Feature", "properties": { "Name": "AAMC Sahyog Vihar", "District_Name": "South West District", "Address_of_Mohalla_Clinic": "C-92, Sahyog Vihar, Near Masjid" }, "geometry": { "type": "Point", "coordinates": [ 77.052349, 28.609652, 0.0 ] } },
{ "type": "Feature", "properties": { "Name": "AAMC Ajay Park", "District_Name": "South West District", "Address_of_Mohalla_Clinic": "RZ-247A, Gali no 18, Ajay Park, Najafgarh New Delhi" }, "geometry": { "type": "Point", "coordinates": [ 76.991614, 28.619806, 0.0 ] } },
{ "type": "Feature", "properties": { "Name": "AAMC Pochanpur", "District_Name": "South West District", "Address_of_Mohalla_Clinic": "Pochanpur, Near Harijan Chopal, Sector-23, Dwarka" }, "geometry": { "type": "Point", "coordinates": [ 77.046437, 28.563244, 0.0 ] } },
{ "type": "Feature", "properties": { "Name": "AAMC Dwarka Vihar", "District_Name": "South West District", "Address_of_Mohalla_Clinic": "100-A, Dwarka Vihar Colony Phase-1, Najafgarh" }, "geometry": { "type": "Point", "coordinates": [ 77.000911, 28.604631, 0.0 ] } },
{ "type": "Feature", "properties": { "Name": "AAMC Mahavir Enclave", "District_Name": "South West District", "Address_of_Mohalla_Clinic": "G-70\/4, Mandir Marg Mahavir Enclave New Delhi" }, "geometry": { "type": "Point", "coordinates": [ 77.076227, 28.599508, 0.0 ] } },
{ "type": "Feature", "properties": { "Name": "AAMC Dabri Ext", "District_Name": "South West District", "Address_of_Mohalla_Clinic": "RZ-D-87, A\/1, Dabri Ext., Gali. No. 9, New Delhi." }, "geometry": { "type": "Point", "coordinates": [ 77.089393, 28.606304, 0.0 ] } },
{ "type": "Feature", "properties": { "Name": "AAMC Indra Park", "District_Name": "South West District", "Address_of_Mohalla_Clinic": "RZ-269\/396, Gali No-10-C, Indra Park" }, "geometry": { "type": "Point", "coordinates": [ 77.096466, 28.598993, 0.0 ] } },
{ "type": "Feature", "properties": { "Name": "AAMC Shyam Vihar", "District_Name": "South West District", "Address_of_Mohalla_Clinic": "B-38, Banwarilal Complex, 25 Feet road, Shyam Vihar Phase-1" }, "geometry": { "type": "Point", "coordinates": [ 77.003591, 28.593923, 0.0 ] } },
{ "type": "Feature", "properties": { "Name": "AAMC Qutub Vihar", "District_Name": "South West District", "Address_of_Mohalla_Clinic": "Khasra No-161\/162, B-Block, Qutub Vihar" }, "geometry": { "type": "Point", "coordinates": [ 77.019471, 28.569831, 0.0 ] } },
{ "type": "Feature", "properties": { "Name": "AAMC Dwarka Sec.-3", "District_Name": "South West District", "Address_of_Mohalla_Clinic": "Govt. Girls School Dwarka Sec.-3 South West , ID 1821203, (AC-33 Dwarka)" }, "geometry": { "type": "Point", "coordinates": [ 77.044189, 28.602048, 0.0 ] } },
{ "type": "Feature", "properties": { "Name": "AAMC Dwarka Sec.-10", "District_Name": "South West District", "Address_of_Mohalla_Clinic": "Rajkiya pratibha vikas Vidyalaya Sec.-10 Dwarka School ID 1821137, (AC-33 Dwarka)" }, "geometry": { "type": "Point", "coordinates": [ 77.052429, 28.585206, 0.0 ] } },
{ "type": "Feature", "properties": { "Name": "AAMC Dwarka Sec.-1", "District_Name": "South West District", "Address_of_Mohalla_Clinic": "Rain Basera punarwas colony Dwarka Sec.-1(AC-33 Dwarka)" }, "geometry": { "type": "Point", "coordinates": [ 77.073885, 28.597311, 0.0 ] } },
{ "type": "Feature", "properties": { "Name": "AAMC Chhawala No.1", "District_Name": "South West District", "Address_of_Mohalla_Clinic": "SKV, Chhawala , (AC-34, Matiala)" }, "geometry": { "type": "Point", "coordinates": [ 77.001566, 28.56652, 0.0 ] } },
{ "type": "Feature", "properties": { "Name": "AAMC Chhawala No.2", "District_Name": "South West District", "Address_of_Mohalla_Clinic": "G.B S.S.S, Chhawala , (AC-34, Matiala)" }, "geometry": { "type": "Point", "coordinates": [ 76.993482, 28.553956, 0.0 ] } },
{ "type": "Feature", "properties": { "Name": "AAMC kanganheri", "District_Name": "South West District", "Address_of_Mohalla_Clinic": "Govt. Co-ed Senior Secondary School kanganheri (AC-34 Matiala)" }, "geometry": { "type": "Point", "coordinates": [ 76.977087, 28.547736, 0.0 ] } },
{ "type": "Feature", "properties": { "Name": "AAMC Kair Village", "District_Name": "South West District", "Address_of_Mohalla_Clinic": "Govt. boys Senior Secondary School kair (AC-35)Najafgarh" }, "geometry": { "type": "Point", "coordinates": [ 76.922712, 28.615879, 0.0 ] } },
{ "type": "Feature", "properties": { "Name": "AAMC Azadpur (Rented)", "District_Name": "north", "Address_of_Mohalla_Clinic": "H.No.467 D Near Budh Mandir ,Village Azadpur Delhi" }, "geometry": { "type": "Point", "coordinates": [ 77.174346, 28.707923, 0.0 ] } },
{ "type": "Feature", "properties": { "Name": "AAMC Bawana (Rented)", "District_Name": "north", "Address_of_Mohalla_Clinic": "126,Ishwar Colony Ext. 3 Delhi" }, "geometry": { "type": "Point", "coordinates": [ 77.036921, 28.792043, 0.0 ] } },
{ "type": "Feature", "properties": { "Name": "AAMC Alipur (Rented)", "District_Name": "north", "Address_of_Mohalla_Clinic": "Sant Kirpal Singh Public Trust,811 GT Road Alipur  Delhi" }, "geometry": { "type": "Point", "coordinates": [ 77.137836, 28.794155, 0.0 ] } },
{ "type": "Feature", "properties": { "Name": "AAMC Holambi Kalan (Rented)", "District_Name": "north", "Address_of_Mohalla_Clinic": "H.No.246 Tyagi mohalla Holambi Delhi" }, "geometry": { "type": "Point", "coordinates": [ 77.09701, 28.806108, 0.0 ] } },
{ "type": "Feature", "properties": { "Name": "AAMC Bhalswa Dairy  (Rented)", "District_Name": "north", "Address_of_Mohalla_Clinic": "A-215,Bhalaswa Dairy Near Police Station" }, "geometry": { "type": "Point", "coordinates": [ 77.162969, 28.743064, 0.0 ] } },
{ "type": "Feature", "properties": { "Name": "AAMC Azadpur (Porta Cabin)", "District_Name": "north", "Address_of_Mohalla_Clinic": "Amber tower Azadpur Delhi" }, "geometry": { "type": "Point", "coordinates": [ 77.178627, 28.71119, 0.0 ] } },
{ "type": "Feature", "properties": { "Name": "AAMC Azadpur Subzi mandi (Porta Cabin)", "District_Name": "north", "Address_of_Mohalla_Clinic": "Azadpur Sabzi mandi Delhi" }, "geometry": { "type": "Point", "coordinates": [ 77.165485, 28.719531, 0.0 ] } },
{ "type": "Feature", "properties": { "Name": "AAMC Azadpur Fruit mandi (Porta Cabin)", "District_Name": "north", "Address_of_Mohalla_Clinic": "Azadpur Fruit mandi Delhi" }, "geometry": { "type": "Point", "coordinates": [ 77.171439, 28.714285, 0.0 ] } },
{ "type": "Feature", "properties": { "Name": "AAMC Munirka", "District_Name": "New Delhi District", "Address_of_Mohalla_Clinic": "80-A\/4, Pratik Market, Munirka village, New Delhi-67" }, "geometry": { "type": "Point", "coordinates": [ 77.173648, 28.555225, 0.0 ] } },
{ "type": "Feature", "properties": { "Name": "AAMC Old Nangal", "District_Name": "New Delhi District", "Address_of_Mohalla_Clinic": "V-11, GF Old Nangal, Delhi Cantt, New Delhi-110010" }, "geometry": { "type": "Point", "coordinates": [ 77.115896, 28.607182, 0.0 ] } },
{ "type": "Feature", "properties": { "Name": "AAMC Todapur", "District_Name": "New Delhi District", "Address_of_Mohalla_Clinic": "WZ-42, Todapur, New Delhi-12" }, "geometry": { "type": "Point", "coordinates": [ 77.156666, 28.622619, 0.0 ] } },
{ "type": "Feature", "properties": { "Name": "AAMC Mehram Nagar", "District_Name": "New Delhi District", "Address_of_Mohalla_Clinic": "R-4, CR, GF, East Mehram Nagar, New Delhi-110037" }, "geometry": { "type": "Point", "coordinates": [ 77.124781, 28.562178, 0.0 ] } },
{ "type": "Feature", "properties": { "Name": "AAMC Ghitorni (porta cabin)", "District_Name": "New Delhi District", "Address_of_Mohalla_Clinic": "AAMC Ghitorni Kharsa no. 630 min plot no. 223, Dhobi Ghat Pahari Ghitorni Enclave New Delhi-110030" }, "geometry": { "type": "Point", "coordinates": [ 77.142756, 28.5072606, 0.0 ] } },
{ "type": "Feature", "properties": { "Name": "AAMC Burari", "District_Name": "Central", "Address_of_Mohalla_Clinic": "AAMC Burari, Takia Chowk, Chaupal ,Burari, Delhi-84" }, "geometry": { "type": "Point", "coordinates": [ 77.199421, 28.758097, 0.0 ] } },
{ "type": "Feature", "properties": { "Name": "AAMC Wazaribad , Timarpur", "District_Name": "Central", "Address_of_Mohalla_Clinic": "AAMC Wazaribad, Khasra No. 120, Gali no. 17,  Wazirabad, Delhi-8" }, "geometry": { "type": "Point", "coordinates": [ 77.223296, 28.730743, 0.0 ] } },
{ "type": "Feature", "properties": { "Name": "AAMC Yamuna Pusta", "District_Name": "Central", "Address_of_Mohalla_Clinic": "AAMC Yamuna Pushta, Rain Basera Yamuna pusta AC-20 Chandi chowk, Delhi-6" }, "geometry": { "type": "Point", "coordinates": [ 77.238408, 28.662601, 0.0 ] } },
{ "type": "Feature", "properties": { "Name": "AAMC Nathupura", "District_Name": "Central", "Address_of_Mohalla_Clinic": "AAMC, Mohalla Clinic Nathupura: - Budh Bazar Road, Nathupura, Burari, Delhi-84" }, "geometry": { "type": "Point", "coordinates": [ 77.174168, 28.769264, 0.0 ] } },
{ "type": "Feature", "properties": { "Name": "AAMC Shastri Nagar (Old)", "District_Name": "Central", "Address_of_Mohalla_Clinic": "AAMC Shastri Nagar, L-74, Shiv Vatika Chowk,  Shastri Nagar, Delhi-52" }, "geometry": { "type": "Point", "coordinates": [ 77.17743, 28.674328, 0.0 ] } },
{ "type": "Feature", "properties": { "Name": "AAMC Singora Kala", "District_Name": "Central", "Address_of_Mohalla_Clinic": "Delhi Administration Complex Opposite Nav Bharti School Sindorakalan, Delhi" }, "geometry": { "type": "Point", "coordinates": [ 77.188198, 28.679656, 0.0 ] } },
{ "type": "Feature", "properties": { "Name": "AAMC Kamla Nagar", "District_Name": "Central", "Address_of_Mohalla_Clinic": "AAMC Kamla Nagar, Oppsite Primary School Madavaliya School, Kamla Nagar, Delhi- 07" }, "geometry": { "type": "Point", "coordinates": [ 77.202653, 28.680043, 0.0 ] } },
{ "type": "Feature", "properties": { "Name": "AAMC Hanuman Mandir Kashmeri gate", "District_Name": "Central", "Address_of_Mohalla_Clinic": "AAMC Hanuman Mandir,  Rain Basera,Hanuman Mandir, ISBT, Kashmiri Gate," }, "geometry": { "type": "Point", "coordinates": [ 77.237821, 28.663481, 0.0 ] } },
{ "type": "Feature", "properties": { "Name": "AAMC Aruna Nagar", "District_Name": "Central", "Address_of_Mohalla_Clinic": "AAMC Aruna Nagr, E-28 , Aruna Nagar, Majnu ka tilla, Delhi-54" }, "geometry": { "type": "Point", "coordinates": [ 77.226735, 28.697146, 0.0 ] } },
{ "type": "Feature", "properties": { "Name": "AAMC Multani Dhanada", "District_Name": "Central", "Address_of_Mohalla_Clinic": "AAMC Multani Dhanda, Plot no.9857-59, gali no.5\/6, Mutani Dhanda ,  Paharganj" }, "geometry": { "type": "Point", "coordinates": [ 77.210535, 28.64728, 0.0 ] } },
{ "type": "Feature", "properties": { "Name": "AAMC Aaram Bagh", "District_Name": "Central", "Address_of_Mohalla_Clinic": "AAMC Aram Bagh , Near Central Park Aaram Bagh, Delhi-5" }, "geometry": { "type": "Point", "coordinates": [ 77.205865, 28.64625, 0.0 ] } },
{ "type": "Feature", "properties": { "Name": "AAMC Karol Bagh", "District_Name": "Central", "Address_of_Mohalla_Clinic": "AAMC Karol Bagh, Opp. Khalasa College , Karol Bagh, Delhi" }, "geometry": { "type": "Point", "coordinates": [ 77.188497, 28.654033, 0.0 ] } },
{ "type": "Feature", "properties": { "Name": "AAMC Shastri Nagar(New)", "District_Name": "Central", "Address_of_Mohalla_Clinic": "AAMC Shastri Nagar, AAMC Shastri Nagar,Near Sai Mandir, \nMain Road, Near Inder Lok Metro Station, Shastri Nagar, delhi" }, "geometry": { "type": "Point", "coordinates": [ 77.172357, 28.671949, 0.0 ] } },
{ "type": "Feature", "properties": { "Name": "AAMC   Sanjay Colony E Block", "District_Name": "south", "Address_of_Mohalla_Clinic": "E-228, Sanjay Colony, Bhati Mines, Chhatarpur" }, "geometry": { "type": "Point", "coordinates": [ 77.226609, 28.430641, 0.0 ] } },
{ "type": "Feature", "properties": { "Name": "AAMC  Panchsheel Vihar", "District_Name": "south", "Address_of_Mohalla_Clinic": "B-3, Panchsheel Vihar, Malviya Nagar" }, "geometry": { "type": "Point", "coordinates": [ 77.222272, 28.53541, 0.0 ] } },
{ "type": "Feature", "properties": { "Name": "AAMC  Rajpur Khurd", "District_Name": "south", "Address_of_Mohalla_Clinic": "H.No 77A,Rajpur Khurd,Nr.MCD Primary School, Chhatarpur" }, "geometry": { "type": "Point", "coordinates": [ 77.193254, 28.491617, 0.0 ] } },
{ "type": "Feature", "properties": { "Name": "AAMC Andheria Mode", "District_Name": "south", "Address_of_Mohalla_Clinic": "Andheria Mode, MG Road, New Delhi" }, "geometry": { "type": "Point", "coordinates": [ 77.16985, 28.51955, 0.0 ] } },
{ "type": "Feature", "properties": { "Name": "AAMC Dakhshinpuri E7", "District_Name": "south", "Address_of_Mohalla_Clinic": "Block no.E 7, Dakshinpuri,  (AC-47 Deoli)" }, "geometry": { "type": "Point", "coordinates": [ 77.239, 28.5207, 0.0 ] } },
{ "type": "Feature", "properties": { "Name": "AAMC HoliChowk Sangam Vihar", "District_Name": "south", "Address_of_Mohalla_Clinic": "C-1st, 130-A, Near Holi Chowk, Sangam Vihar" }, "geometry": { "type": "Point", "coordinates": [ 77.236042, 28.500974, 0.0 ] } },
{ "type": "Feature", "properties": { "Name": "AAMC Lado Sarai", "District_Name": "south", "Address_of_Mohalla_Clinic": "MB Road Ladosarai AC-43 Malviya nagar" }, "geometry": { "type": "Point", "coordinates": [ 77.2108, 28.5335, 0.0 ] } },
{ "type": "Feature", "properties": { "Name": "AAMC MG Road Sultanpur", "District_Name": "south", "Address_of_Mohalla_Clinic": "MG Road, Sultanpur, (Near metro station), New Delhi" }, "geometry": { "type": "Point", "coordinates": [ 77.0311, 28.73535, 0.0 ] } },
{ "type": "Feature", "properties": { "Name": "AAMC Tigri near Mahila Vkas Kendra", "District_Name": "south", "Address_of_Mohalla_Clinic": "Mahila Vikas kendra,Tigri,Sangam vihar, South Delhi (AC- 47 Deoli)" }, "geometry": { "type": "Point", "coordinates": [ 77.2397, 28.5114, 0.0 ] } },
{ "type": "Feature", "properties": { "Name": "AAMC Tigri near MLA Office", "District_Name": "south", "Address_of_Mohalla_Clinic": "JJ cluster, Tigri NEAR MLA office AC-47 Deoli" }, "geometry": { "type": "Point", "coordinates": [ 77.2498, 28.5104, 0.0 ] } },
{ "type": "Feature", "properties": { "Name": "AAMCE5 Dakshinpuri", "District_Name": "south", "Address_of_Mohalla_Clinic": "E-5, Daksinpuri, New Delhi-62" }, "geometry": { "type": "Point", "coordinates": [ 77.23009, 28.52329, 0.0 ] } },
{ "type": "Feature", "properties": { "Name": "AAMCSanjayColony D Block", "District_Name": "south", "Address_of_Mohalla_Clinic": "D-24, Sanjay Colony, Bhati Mines, Chhattarpur" }, "geometry": { "type": "Point", "coordinates": [ 77.229616, 28.433165, 0.0 ] } },
{ "type": "Feature", "properties": { "Name": "Inder Enclave", "District_Name": "north west", "Address_of_Mohalla_Clinic": "H.No. C-441, Khasra No. 42\/3, Inder Enclave, Phase-1, Delhi-86" }, "geometry": { "type": "Point", "coordinates": [ 77.050537, 28.700544, 0.0 ] } },
{ "type": "Feature", "properties": { "Name": "Shish Mahal", "District_Name": "north west", "Address_of_Mohalla_Clinic": "Kh no: 193 ,Shish Mahal enclave , prem nagar 3, Delhi 86" }, "geometry": { "type": "Point", "coordinates": [ 77.047141, 28.701408, 0.0 ] } },
{ "type": "Feature", "properties": { "Name": "Sector-16, Rohini", "District_Name": "north west", "Address_of_Mohalla_Clinic": "F4\/6, Sector 16 Rohini, Delhi 85" }, "geometry": { "type": "Point", "coordinates": [ 77.1259, 28.7337, 0.0 ] } },
{ "type": "Feature", "properties": { "Name": "P-2 sultanpuri", "District_Name": "north west", "Address_of_Mohalla_Clinic": "P 2\/652, Sultanpuri J.J.colony, Delhi-110086" }, "geometry": { "type": "Point", "coordinates": [ 77.081993, 28.702121, 0.0 ] } },
{ "type": "Feature", "properties": { "Name": "E-31, Rajiv Nagar, Begumpur", "District_Name": "north west", "Address_of_Mohalla_Clinic": "Kno:102\/10 ,H.No.E-31, Rajiv Nagar, Begumpur, Opp.Sector-22, Rohini, Delhi.110086" }, "geometry": { "type": "Point", "coordinates": [ 77.0629, 28.723444, 0.0 ] } },
{ "type": "Feature", "properties": { "Name": "Sector-3, Rohini", "District_Name": "north west", "Address_of_Mohalla_Clinic": "H.NO. 66, Block-E, Pocket-18, Sector-3, Rohini, Delhi - 85" }, "geometry": { "type": "Point", "coordinates": [ 77.105281, 28.700292, 0.0 ] } },
{ "type": "Feature", "properties": { "Name": "Sector-4, Rohini", "District_Name": "north west", "Address_of_Mohalla_Clinic": "H.No. A-4\/291, Sector-4, Rohini, Delhi - 85" }, "geometry": { "type": "Point", "coordinates": [ 77.101671, 28.706661, 0.0 ] } },
{ "type": "Feature", "properties": { "Name": "Sani Bazar Road, Sultanpuri", "District_Name": "north west", "Address_of_Mohalla_Clinic": "H.no.E 7\/84, Near Sani Bazar Road, Sultanpuri, Delhi.110086" }, "geometry": { "type": "Point", "coordinates": [ 77.069596, 28.691812, 0.0 ] } },
{ "type": "Feature", "properties": { "Name": "A-2,Keshavpurm", "District_Name": "north west", "Address_of_Mohalla_Clinic": "A-2\/131, Keshavpurm, Delhi.110035" }, "geometry": { "type": "Point", "coordinates": [ 77.157531, 28.682231, 0.0 ] } },
{ "type": "Feature", "properties": { "Name": "C-3,Keshavpuram", "District_Name": "north west", "Address_of_Mohalla_Clinic": "C-3\/76 |Keshavpuram Delhi 35" }, "geometry": { "type": "Point", "coordinates": [ 77.158475, 28.688431, 0.0 ] } },
{ "type": "Feature", "properties": { "Name": "Shiv Mandir,Wazirpur Village", "District_Name": "north west", "Address_of_Mohalla_Clinic": "Shiv Mandir, Sewa Samiti, Wazirpur Village, Delhi-52" }, "geometry": { "type": "Point", "coordinates": [ 77.1734, 28.691104, 0.0 ] } },
{ "type": "Feature", "properties": { "Name": "Mange Ram Park, Budh Vihar Phase-2", "District_Name": "north west", "Address_of_Mohalla_Clinic": "H.No. 231-32, Kh. No.28\/19, Mange Ram Park, Budh Vihar Phase-2, Delhi-86" }, "geometry": { "type": "Point", "coordinates": [ 77.1235, 28.7362, 0.0 ] } },
{ "type": "Feature", "properties": { "Name": "Budh Vihar, Phase-1, Opp.Surya Market", "District_Name": "north west", "Address_of_Mohalla_Clinic": "kh no:65\/10 ,Q-44, Budh Vihar, Phase-1, Opp.Surya Market, Delhi.10086" }, "geometry": { "type": "Point", "coordinates": [ 77.08534, 28.706884, 0.0 ] } },
{ "type": "Feature", "properties": { "Name": "East Shalimar Bagh, Janta Flat", "District_Name": "north west", "Address_of_Mohalla_Clinic": "BH Block, 700 A, East Shalimar Bagh, Janta Flat, Delhi-88" }, "geometry": { "type": "Point", "coordinates": [ 77.155307, 28.715069, 0.0 ] } },
{ "type": "Feature", "properties": { "Name": "Sultanpur Dabas", "District_Name": "north west", "Address_of_Mohalla_Clinic": "Hno: 271  pole no 521-1\/2\/7\/5 Village Sultanpur Dabas Neemwali gali ,delhi 39" }, "geometry": { "type": "Point", "coordinates": [ 77.0412, 28.764584, 0.0 ] } },
{ "type": "Feature", "properties": { "Name": "Block-G, Shakurpur", "District_Name": "north west", "Address_of_Mohalla_Clinic": "Vacant Land opposite House no 831 Block-G, Shakurpur" }, "geometry": { "type": "Point", "coordinates": [ 77.148696, 28.68793, 0.0 ] } },
{ "type": "Feature", "properties": { "Name": "Wazirpur, JJ Colony", "District_Name": "north west", "Address_of_Mohalla_Clinic": "Adj. Delhi grant. Library MCD Sulabh Shauchalaya, Opp. Dusib sulabh toilet, Wazirpur, JJ Colony" }, "geometry": { "type": "Point", "coordinates": [ 77.1728, 28.678405, 0.0 ] } },
{ "type": "Feature", "properties": { "Name": "Block - I,Shakurpur", "District_Name": "north west", "Address_of_Mohalla_Clinic": "Vacant land of Dusib, In front of house no.-307, Block - I,Shakurpur" }, "geometry": { "type": "Point", "coordinates": [ 77.146856, 28.689972, 0.0 ] } },
{ "type": "Feature", "properties": { "Name": "kela godan,Shalimar Bagh", "District_Name": "north west", "Address_of_Mohalla_Clinic": "Along Railway wall kela godan road  opposite BC block  Shalimar Bagh" }, "geometry": { "type": "Point", "coordinates": [ 77.165592, 28.713892, 0.0 ] } },
{ "type": "Feature", "properties": { "Name": "Rithala village", "District_Name": "north west", "Address_of_Mohalla_Clinic": "On the bank of nala,Rithala village, Rithala,Delhi." }, "geometry": { "type": "Point", "coordinates": [ 77.094957, 28.716473, 0.0 ] } },
{ "type": "Feature", "properties": { "Name": "Deepali Chowk, Pitampura", "District_Name": "north west", "Address_of_Mohalla_Clinic": "In front of Amrit Enclave Shahid Bismil Marg Deepali Chowk, Pitampura" }, "geometry": { "type": "Point", "coordinates": [ 77.117307, 28.69017, 0.0 ] } },
{ "type": "Feature", "properties": { "Name": "Cement siding, Shakur Basti", "District_Name": "north west", "Address_of_Mohalla_Clinic": "Near Ran Basera, Cement siding, Shakur Basti Railway station" }, "geometry": { "type": "Point", "coordinates": [ 77.139376, 28.6781, 0.0 ] } },
{ "type": "Feature", "properties": { "Name": "Pratap Vihar-3 Kirari Suleman Nagar", "District_Name": "north west", "Address_of_Mohalla_Clinic": "AAMC B-125, Mohalla Clinic  Pratap Vihar-3 Kirari Suleman Nagar, Delhi- 86" }, "geometry": { "type": "Point", "coordinates": [ 77.057613, 28.704599, 0.0 ] } },
{ "type": "Feature", "properties": { "Name": "Sector 17 Rohini", "District_Name": "north west", "Address_of_Mohalla_Clinic": "AAMC Sector 17 Rohini Near TPDDL Office Near NALA" }, "geometry": { "type": "Point", "coordinates": [ 77.056328, 28.703841, 0.0 ] } },
{ "type": "Feature", "properties": { "Name": "AAMC GHONDA", "District_Name": "north east", "Address_of_Mohalla_Clinic": "K6\/4B, Street No22, West Ghonda" }, "geometry": { "type": "Point", "coordinates": [ 77.263784, 28.695881, 0.0 ] } },
{ "type": "Feature", "properties": { "Name": "AAMCKARTAR NAGAR", "District_Name": "north east", "Address_of_Mohalla_Clinic": "B-1, Kartar Nagar, 3.5 Pusta,Street No.2, Near Hero Showroom, Delhi" }, "geometry": { "type": "Point", "coordinates": [ 77.254722, 28.689549, 0.0 ] } },
{ "type": "Feature", "properties": { "Name": "AAMC GOKALPURI", "District_Name": "north east", "Address_of_Mohalla_Clinic": "D 29, Gokalpuri, Delhi." }, "geometry": { "type": "Point", "coordinates": [ 77.283559, 28.702793, 0.0 ] } },
{ "type": "Feature", "properties": { "Name": "AAMC GANGA VIHAR", "District_Name": "north east", "Address_of_Mohalla_Clinic": "B-18\/1, Ganga Vihar,Delhi-94" }, "geometry": { "type": "Point", "coordinates": [ 77.285023, 28.704826, 0.0 ] } },
{ "type": "Feature", "properties": { "Name": "AAMC MOONGA NAGAR", "District_Name": "north east", "Address_of_Mohalla_Clinic": "455,Street No.8,Moonga Nagar,Karawal Nagar Road" }, "geometry": { "type": "Point", "coordinates": [ 77.263565, 28.707477, 0.0 ] } },
{ "type": "Feature", "properties": { "Name": "AAMC AMBIKA VIHAR", "District_Name": "north east", "Address_of_Mohalla_Clinic": "C-45, Gali No.03, Ambika Vihar, Shiv Vihar, Delhi-94" }, "geometry": { "type": "Point", "coordinates": [ 77.278266, 28.730866, 0.0 ] } },
{ "type": "Feature", "properties": { "Name": "AAMC SHIV VIHAR PHASE 10", "District_Name": "north east", "Address_of_Mohalla_Clinic": "B-90, BG\/F, House No-36\/17, Gali No-14, Main 25Feet Road, Phase-10, Shiv Vihar" }, "geometry": { "type": "Point", "coordinates": [ 77.282821, 28.72213, 0.0 ] } },
{ "type": "Feature", "properties": { "Name": "AAMC SHIV VIHAR PHASE 9", "District_Name": "north east", "Address_of_Mohalla_Clinic": "H.No.200, Gali No.06, Phase-9, Shiv Vihar, Delhi-94" }, "geometry": { "type": "Point", "coordinates": [ 77.283482, 28.724573, 0.0 ] } },
{ "type": "Feature", "properties": { "Name": "AAMC JAFERABAD", "District_Name": "north east", "Address_of_Mohalla_Clinic": "930, Gali No. 30\/7, Jaferabad" }, "geometry": { "type": "Point", "coordinates": [ 77.270551, 28.681158, 0.0 ] } },
{ "type": "Feature", "properties": { "Name": "AAMC MAUJPUR", "District_Name": "north east", "Address_of_Mohalla_Clinic": "H.No42\/1 Puri Street No.1 Maujpur Near JM Convent School, Delhi-53" }, "geometry": { "type": "Point", "coordinates": [ 77.27356, 28.687933, 0.0 ] } },
{ "type": "Feature", "properties": { "Name": "AAMC USMANPUR 2 PUSHTA", "District_Name": "north east", "Address_of_Mohalla_Clinic": "USMANPUR 2 PUSHTA" }, "geometry": { "type": "Point", "coordinates": [ 77.255311, 28.683348, 0.0 ] } },
{ "type": "Feature", "properties": { "Name": "AAMC USMANPUR 3 PUSHTA", "District_Name": "north east", "Address_of_Mohalla_Clinic": "USMANPUR 3 PUSHTA" }, "geometry": { "type": "Point", "coordinates": [ 77.254647, 28.6862147, 0.0 ] } },
{ "type": "Feature", "properties": { "Name": "Porta cabin Gokulpur", "District_Name": "north east", "Address_of_Mohalla_Clinic": "near petrol pump gokulpuri" }, "geometry": { "type": "Point", "coordinates": [ 77.28583, 28.70201, 0.0 ] } },
{ "type": "Feature", "properties": { "Name": "Aam Admi Porta Cabin Khajoorikhas", "District_Name": "north east", "Address_of_Mohalla_Clinic": "near khajoori khas fly over" }, "geometry": { "type": "Point", "coordinates": [ 77.25993, 28.70743, 0.0 ] } },
{ "type": "Feature", "properties": { "Name": "Aam Admi Porta Cabin Garhi Maindu Gaon", "District_Name": "north east", "Address_of_Mohalla_Clinic": "near shiv mandir garhi mandu" }, "geometry": { "type": "Point", "coordinates": [ 77.254658, 28.6862144, 0.0 ] } },
{ "type": "Feature", "properties": { "Name": "AAMC Abul Fazal Enclave", "District_Name": "south east", "Address_of_Mohalla_Clinic": "Allama shibli nomani road,Flood Plain, Abul Fazal,Delhi 110025" }, "geometry": { "type": "Point", "coordinates": [ 77.301865, 28.546891, 0.0 ] } },
{ "type": "Feature", "properties": { "Name": "AAMC Ashram", "District_Name": "south east", "Address_of_Mohalla_Clinic": "hari nagar, delhi 110064" }, "geometry": { "type": "Point", "coordinates": [ 77.2559, 28.5736, 0.0 ] } },
{ "type": "Feature", "properties": { "Name": "AAMC Batra Hospital", "District_Name": "south east", "Address_of_Mohalla_Clinic": "Under Foot Over Bridge , Batra Hospital , near santya narayan mandir bus stop delhi 110080" }, "geometry": { "type": "Point", "coordinates": [ 77.2432, 28.5121, 0.0 ] } },
{ "type": "Feature", "properties": { "Name": "AAMC C 5 Jogabai", "District_Name": "south east", "Address_of_Mohalla_Clinic": "C 5 Jogabai , Batla House New Delhi, 110025" }, "geometry": { "type": "Point", "coordinates": [ 77.2938, 28.5596, 0.0 ] } },
{ "type": "Feature", "properties": { "Name": "AAMC Kilokari", "District_Name": "south east", "Address_of_Mohalla_Clinic": "ring road near dgd shreeniwaspuri delhi 110065" }, "geometry": { "type": "Point", "coordinates": [ 77.2665, 28.5781, 0.0 ] } },
{ "type": "Feature", "properties": { "Name": "AAMC Prem Nagar", "District_Name": "south east", "Address_of_Mohalla_Clinic": "prem nagar lal kua tuglaka bad , near okhla mode red light ,delhi, 110086" }, "geometry": { "type": "Point", "coordinates": [ 77.255, 28.5033, 0.0 ] } },
{ "type": "Feature", "properties": { "Name": "AAMC Pul Prahladpur", "District_Name": "south east", "Address_of_Mohalla_Clinic": "pulprehlad pur, back side of bus stand,Delhi ,110086" }, "geometry": { "type": "Point", "coordinates": [ 77.291, 28.499, 0.0 ] } },
{ "type": "Feature", "properties": { "Name": "AAMC Rain Basera Sarai Kale khan", "District_Name": "south east", "Address_of_Mohalla_Clinic": "AAMC Rain Basera Sarai Kale khan ,near dgd sarai kale kha delhi 110013" }, "geometry": { "type": "Point", "coordinates": [ 77.2605, 28.5906, 0.0 ] } },
{ "type": "Feature", "properties": { "Name": "AAMC S 10 Jogabai", "District_Name": "south east", "Address_of_Mohalla_Clinic": "S 10\/D-15 Jogabai , Batla House New Delhi110025" }, "geometry": { "type": "Point", "coordinates": [ 77.2913, 28.5602, 0.0 ] } },
{ "type": "Feature", "properties": { "Name": "AAMC Saheen Bagh", "District_Name": "south east", "Address_of_Mohalla_Clinic": "Allama shibli nomani road,Flood Plain, Abul Fazal 110025" }, "geometry": { "type": "Point", "coordinates": [ 77.3051, 28.547, 0.0 ] } },
{ "type": "Feature", "properties": { "Name": "AAMC Sangam Vihar Gupta Colony", "District_Name": "south east", "Address_of_Mohalla_Clinic": "j2b sangam vihar ,kali mandir kabristan chowk delhi 110080" }, "geometry": { "type": "Point", "coordinates": [ 77.2389, 28.4989, 0.0 ] } },
{ "type": "Feature", "properties": { "Name": "AAMC Tajpur Pahadi", "District_Name": "south east", "Address_of_Mohalla_Clinic": "AAMC Tajpur Pahari, Govt. Boys, Sr, Sec. School , Tajpur Pahari delhi 110044" }, "geometry": { "type": "Point", "coordinates": [ 77.154983, 28.689681, 0.0 ] } },
{ "type": "Feature", "properties": { "Name": "AAMC E-115, Raghubir Nagar", "District_Name": "West", "Address_of_Mohalla_Clinic": "AAMC E-115, Raghubir Nagar" }, "geometry": { "type": "Point", "coordinates": [ 77.10718, 28.64806, 0.0 ] } },
{ "type": "Feature", "properties": { "Name": "AAMC B-5, B-Block, Shiv Vihar, Col Bhatia Road, Tyagi Chowk", "District_Name": "West", "Address_of_Mohalla_Clinic": "AAMC B-5, B-Block, Shiv Vihar, Col Bhatia Road, Tyagi Chowk" }, "geometry": { "type": "Point", "coordinates": [ 77.05298, 28.64747, 0.0 ] } },
{ "type": "Feature", "properties": { "Name": "AAMC 69-Hastsal Village, Near DDA Park, Vikas Puri", "District_Name": "West", "Address_of_Mohalla_Clinic": "AAMC 69-Hastsal Village, Near DDA Park, Vikas Puri" }, "geometry": { "type": "Point", "coordinates": [ 77.05499, 28.63548, 0.0 ] } },
{ "type": "Feature", "properties": { "Name": "AAMC Plot No.324, Aryan Garden Road. Om Vihar, Uttam Nagar", "District_Name": "West", "Address_of_Mohalla_Clinic": "AAMC Plot No.324, Aryan Garden Road. Om Vihar, Uttam Nagar" }, "geometry": { "type": "Point", "coordinates": [ 77.05496, 28.6354, 0.0 ] } },
{ "type": "Feature", "properties": { "Name": "AAMC RZ-22,Khushi Ram Park, Om Vihar", "District_Name": "West", "Address_of_Mohalla_Clinic": "AAMC RZ-22,Khushi Ram Park, Om Vihar" }, "geometry": { "type": "Point", "coordinates": [ 77.05139, 28.61722, 0.0 ] } },
{ "type": "Feature", "properties": { "Name": "AAMC E-159-A, Mansaram Park", "District_Name": "West", "Address_of_Mohalla_Clinic": "AAMC E-159-A, Mansaram Park" }, "geometry": { "type": "Point", "coordinates": [ 77.03894, 28.61433, 0.0 ] } },
{ "type": "Feature", "properties": { "Name": "RZB-149, Nihal Vihar", "District_Name": "West", "Address_of_Mohalla_Clinic": "RZB-149, Nihal Vihar" }, "geometry": { "type": "Point", "coordinates": [ 77.07666, 28.66661, 0.0 ] } },
{ "type": "Feature", "properties": { "Name": "AAMC RZ-E\/244 Nihal Vihar, Thana Road, Paschim Vihar", "District_Name": "West", "Address_of_Mohalla_Clinic": "AAMC RZ-E\/244 Nihal Vihar, Thana Road, Paschim Vihar" }, "geometry": { "type": "Point", "coordinates": [ 77.0413, 28.76458, 0.0 ] } },
{ "type": "Feature", "properties": { "Name": "AAMC H.No. L-2\/D, 69A, Mohan Garden, Uttam Nagar", "District_Name": "West", "Address_of_Mohalla_Clinic": "AAMC H.No. L-2\/D, 69A, Mohan Garden, Uttam Nagar" }, "geometry": { "type": "Point", "coordinates": [ 77.04249, 28.63217, 0.0 ] } },
{ "type": "Feature", "properties": { "Name": "AAMC B-43,  AS\/F  Vikas Nagar, Vikas Vihar", "District_Name": "West", "Address_of_Mohalla_Clinic": "AAMC B-43,  AS\/F  Vikas Nagar, Vikas Vihar" }, "geometry": { "type": "Point", "coordinates": [ 77.05226, 28.63613, 0.0 ] } },
{ "type": "Feature", "properties": { "Name": "AAMC E-3\/62, Shiv Ram Park, Nangloi", "District_Name": "West", "Address_of_Mohalla_Clinic": "AAMC E-3\/62, Shiv Ram Park, Nangloi" }, "geometry": { "type": "Point", "coordinates": [ 77.06125, 28.66653, 0.0 ] } },
{ "type": "Feature", "properties": { "Name": "AAMC  Gali No 9 Kh No 79\/20 Chanchal Park Vikas puri, Bakkarwala", "District_Name": "West", "Address_of_Mohalla_Clinic": "AAMC  Gali No 9 Kh No 79\/20 Chanchal Park Vikas puri, Bakkarwala" }, "geometry": { "type": "Point", "coordinates": [ 77.02758, 28.64774, 0.0 ] } },
{ "type": "Feature", "properties": { "Name": "A-2\/254, LIG Flats, Pratik Apartment, Paschim Vihar", "District_Name": "West", "Address_of_Mohalla_Clinic": "A-2\/254, LIG Flats, Pratik Apartment, Paschim Vihar" }, "geometry": { "type": "Point", "coordinates": [ 77.10191, 28.67128, 0.0 ] } },
{ "type": "Feature", "properties": { "Name": "Adhyapak Nagar Nangloi, N.D", "District_Name": "West", "Address_of_Mohalla_Clinic": "Adhyapak Nagar Nangloi, N.D" }, "geometry": { "type": "Point", "coordinates": [ 77.0583, 28.66771, 0.0 ] } },
{ "type": "Feature", "properties": { "Name": "H No. 9, Gali No-3, Lekh Ram Park, Tilri Kalan", "District_Name": "West", "Address_of_Mohalla_Clinic": "H No. 9, Gali No-3, Lekh Ram Park, Tilri Kalan" }, "geometry": { "type": "Point", "coordinates": [ 77.0413, 28.76458, 0.0 ] } },
{ "type": "Feature", "properties": { "Name": "B-340, Vikas Nagar, Vikas Vihar", "District_Name": "West", "Address_of_Mohalla_Clinic": "B-340, Vikas Nagar, Vikas Vihar" }, "geometry": { "type": "Point", "coordinates": [ 77.05295, 28.64742, 0.0 ] } },
{ "type": "Feature", "properties": { "Name": "Plto No-3 & 4, D-Block, Najafgarh, Jai Vihar", "District_Name": "West", "Address_of_Mohalla_Clinic": "Plto No-3 & 4, D-Block, Najafgarh, Jai Vihar" }, "geometry": { "type": "Point", "coordinates": [ 77.00527, 28.62826, 0.0 ] } },
{ "type": "Feature", "properties": { "Name": "House No. 112, Lions Enclave, Ranholla Raod, Vikas Nagar", "District_Name": "West", "Address_of_Mohalla_Clinic": "House No. 112, Lions Enclave, Ranholla Raod, Vikas Nagar" }, "geometry": { "type": "Point", "coordinates": [ 77.05022, 28.63937, 0.0 ] } },
{ "type": "Feature", "properties": { "Name": "150-A Gali No-4, Nathan Vihar Ranholla", "District_Name": "West", "Address_of_Mohalla_Clinic": "150-A Gali No-4, Nathan Vihar Ranholla" }, "geometry": { "type": "Point", "coordinates": [ 77.04326, 28.65314, 0.0 ] } },
{ "type": "Feature", "properties": { "Name": "A-32\/33 A Ext. Mohan Garden", "District_Name": "West", "Address_of_Mohalla_Clinic": "A-32\/33 A Ext. Mohan Garden" }, "geometry": { "type": "Point", "coordinates": [ 77.04045, 28.6246, 0.0 ] } },
{ "type": "Feature", "properties": { "Name": "AAMC Basti Vikas Kendra, Old Slum Paschim Puri  (DUSIB Non rented))", "District_Name": "West", "Address_of_Mohalla_Clinic": "AAMC Basti Vikas Kendra, Old Slum Paschim Puri  (DUSIB Non rented))" }, "geometry": { "type": "Point", "coordinates": [ 77.0413, 28.76458, 0.0 ] } },
{ "type": "Feature", "properties": { "Name": "AAMC Baprualla, DUSIB Land EWS Flat, Rajiv Ratan Yojna Flats Delhi-110043", "District_Name": "West", "Address_of_Mohalla_Clinic": "AAMC Baprualla, DUSIB Land EWS Flat, Rajiv Ratan Yojna Flats Delhi-110043" }, "geometry": { "type": "Point", "coordinates": [ 77.020623, 28.638851, 0.0 ] } },
{ "type": "Feature", "properties": { "Name": "AAMC Peeragarhi, Near PWD Office Delhi-110015", "District_Name": "West", "Address_of_Mohalla_Clinic": "AAMC Peeragarhi, Near PWD Office Delhi-110015" }, "geometry": { "type": "Point", "coordinates": [ 77.094981, 28.676608, 0.0 ] } },
{ "type": "Feature", "properties": { "Name": "Punjabi Punarwas Basti, AAMC Peeragarhi Relif Camp Rohtak Road, Near Metro Pillar No.-255, Delhi-110015", "District_Name": "West", "Address_of_Mohalla_Clinic": "Punjabi Punarwas Basti, AAMC Peeragarhi Relif Camp Rohtak Road, Near Metro Pillar No.-255, Delhi-110015" }, "geometry": { "type": "Point", "coordinates": [ 77.100217, 28.680158, 0.0 ] } },
{ "type": "Feature", "properties": { "Name": "AAMC JJ Colony, Meera Bagh Delhi", "District_Name": "West", "Address_of_Mohalla_Clinic": "AAMC JJ Colony, Meera Bagh Delhi" }, "geometry": { "type": "Point", "coordinates": [ 77.095318, 28.659309, 0.0 ] } },
{ "type": "Feature", "properties": { "Name": "AAMC Inside Sarvodya Sr. Sec SKV, Janak Puri D- Block No-1 (School ID 1720014), in the school Campus Delhi", "District_Name": "West", "Address_of_Mohalla_Clinic": "AAMC Inside Sarvodya Sr. Sec SKV, Janak Puri D- Block No-1 (School ID 1720014), in the school Campus Delhi" }, "geometry": { "type": "Point", "coordinates": [ 77.1067777, 28.610066, 0.0 ] } },
{ "type": "Feature", "properties": { "Name": "AAMC 12-Block Tilak Nagar", "District_Name": "West", "Address_of_Mohalla_Clinic": "AAMC 12-Block Tilak Nagar" }, "geometry": { "type": "Point", "coordinates": [ 77.096165, 28.640698, 0.0 ] } },
{ "type": "Feature", "properties": { "Name": "AAMC Subhash Nagar Govt. School Beriwala Bagh (NEW)", "District_Name": "West", "Address_of_Mohalla_Clinic": "AAMC Subhash Nagar Govt. School Beriwala Bagh (NEW)" }, "geometry": { "type": "Point", "coordinates": [ 77.11494, 28.63402, 0.0 ] } },
{ "type": "Feature", "properties": { "Name": "AAMC Aggarwal Chowk, Chander Vihar, Nilothi Extn.-II (NEW)", "District_Name": "West", "Address_of_Mohalla_Clinic": "AAMC Aggarwal Chowk, Chander Vihar, Nilothi Extn.-II (NEW)" }, "geometry": { "type": "Point", "coordinates": [ 77.170964, 28.559034, 0.0 ] } },
{ "type": "Feature", "properties": { "Name": "AAMC Shradhapuri, Raja Garden on Ring Road near Foot over Bridge (Assembly-Moti Nagar)  (NEW)", "District_Name": "West", "Address_of_Mohalla_Clinic": "AAMC Shradhapuri, Raja Garden on Ring Road near Foot over Bridge (Assembly-Moti Nagar)  (NEW)" }, "geometry": { "type": "Point", "coordinates": [ 77.12451, 28.65405, 0.0 ] } },
{ "type": "Feature", "properties": { "Name": "AAMC DUSIB Land SRC Colony Bakkarwala. (NEW)", "District_Name": "West", "Address_of_Mohalla_Clinic": "AAMC DUSIB Land SRC Colony Bakkarwala. (NEW)" }, "geometry": { "type": "Point", "coordinates": [ 77.014, 28.66296, 0.0 ] } },
{ "type": "Feature", "properties": { "Name": "AAMC Container at Jwalaheri, Major Ashwani MArg, Paschim Vihar  (NEW)", "District_Name": "West", "Address_of_Mohalla_Clinic": "AAMC Container at Jwalaheri, Major Ashwani MArg, Paschim Vihar  (NEW)" }, "geometry": { "type": "Point", "coordinates": [ 77.09677, 28.67318, 0.0 ] } },
{ "type": "Feature", "properties": { "Name": "AAMC Ranholla Extenion, Nangloi, Najafgarh Road  (NEW)", "District_Name": "West", "Address_of_Mohalla_Clinic": "AAMC Ranholla Extenion, Nangloi, Najafgarh Road  (NEW)" }, "geometry": { "type": "Point", "coordinates": [ 77.0343, 28.6529, 0.0 ] } },
{ "type": "Feature", "properties": { "Name": "AAMC  Sr. Sec. School, Gurudwara Road, Tilak Nagar, Delhi (School ID : 1514005)  (NEW) Block-21", "District_Name": "West", "Address_of_Mohalla_Clinic": "AAMC  Sr. Sec. School, Gurudwara Road, Tilak Nagar, Delhi (School ID : 1514005)  (NEW) Block-21" }, "geometry": { "type": "Point", "coordinates": [ 77.0881, 28.64872, 0.0 ] } }
]
}
